
    {
        "_id": "5a5e71a2734d1d347185192c",
        "name": "La fourmilière",
        "info": "Colonie",
        "active": true,
        "type": "home",
        "location": {
            "type": "Point",
            "coordinates": [
                47.9844782,
                0.2415538
            ]
        }
    },
    {
        "_id": "5a5e7207734d1d347185195c",
        "name": "Epau",
        "info": "pas trop loin",
        "active": true,
        "type": "seed",
        "location": {
            "type": "Point",
            "coordinates": [
                47.99026,
                0.23991
            ]
        }
    },
    {
        "_id": "5a5e7228734d1d3471851968",
        "name": "CFA",
        "info": "pas trop loin",
        "active": true,
        "type": "seed",
        "location": {
            "type": "Point",
            "coordinates": [
                47.9827689,
                0.2328369
            ]
        }
    },
    {
        "_id": "5a5e71e2734d1d3471851942",
        "name": "Les plaines de l'arche",
        "info": "pas trop loin",
        "active": true,
        "type": "seed",
        "location": {
            "type": "Point",
            "coordinates": [
                47.987444,
                0.253475
            ]
        }
    },
    {
        "_id": "5a63483cf36d287087a19f59",
        "name": "Goncourt",
        "info": "après lycée Sud",
        "active": true,
        "type": "seed",
        "location": {
            "type": "Point",
            "coordinates": [
                47.9809281,
                0.2222387
            ]
        }
    }